# Ville	long	lat	pop_2010
PARIS	2.3522219	48.856614	2240213.099
MARSEILLE	5.36978	43.296482	875483.1264
LYON	4.835659	45.764043	479270.4716
TOULOUSE	1.444209	43.604652	448859.6807
NICE	7.265592	43.696036	342347.8284
NANTES	-1.553621	47.218371	282137.5867
STRASBOURG	7.747882	48.583148	272491.153
MONTPELLIER	3.876716	43.610769	260959.188
BORDEAUX	-0.57918	44.837789	240365.2502
LILLE	3.057256	50.62925	226860.7487
RENNES	-1.675708	48.113475	205675.1912
REIMS	4.031696	49.258329	178609.581
HAVRE	0.107929	49.49437	173261.6944
SAINT-ETIENNE	4.3871779	45.439695	171489.5489
TOULON	5.928	43.124228	170136.6031
GRENOBLE	5.724524	45.188529	156769.9972
DIJON	5.04148	47.322047	150139.5962
VILLEURBANNE	4.8901709	45.771944	147137.9336
ANGERS	-0.563166	47.478419	145821.0409
AIX-EN-PROVENCE	5.447427	43.529742	145045.5821
NIMES	4.360054	43.836699	142317.3007
MANS	0.199556	48.00611	141871.7199
LIMOGES	1.261105	45.833619	141715.3635
CLERMONT-FERRAND	3.087025	45.777222	140041.2729
BREST	-4.486076	48.390394	139366.6049
TOURS	0.68484	47.394144	135746.9511
AMIENS	2.295753	49.894067	133564.6581
PERPIGNAN	2.8958719	42.698684	122522.125
METZ	6.176905	49.119666	121262.9948
BESANCON	6.0240539	47.237829	116267.2422
BOULOGNE-BILLANCOURT	2.237803	48.84325	113923.4076
ORLEANS	1.909251	47.902964	111838.453
MULHOUSE	7.335888	47.750839	111603.2459
SAINT-DENIS	2.357443	48.936181	109727.0274
ROUEN	1.099971	49.443232	109004.7946
CAEN	-0.370679	49.182863	107647.5122
MONTREUIL	2.448451	48.863812	106312.2205
ARGENTEUIL	2.2489499	48.947411	105346.2453
NANCY	6.184417	48.692054	104868.8482
ROUBAIX	3.177847	50.6927049	95265.41309
TOURCOING	3.16207	50.724993	91961.15775
AVIGNON	4.805528	43.949317	91817.05749
CRETEIL	2.455572	48.790367	91465.19037
NANTERRE	2.215331	48.892423	91245.38506
COURBEVOIE	2.25929	48.900552	90586.38912
POITIERS	0.340375	46.580224	90325.37172
VERSAILLES	2.130122	48.801408	87446.90056
VITRY-SUR-SEINE	2.39851	48.792001	86921.9158
COLOMBES	2.248307	48.931179	85839.82968
PAU	-0.370797	43.2951	85754.39897
ASNIERES-SUR-SEINE	2.285369	48.914155	82746.15515
AULNAY-SOUS-BOIS	2.497115	48.940974	82136.68483
RUEIL-MALMAISON	2.17693	48.882767	79229.06517
AUBERVILLIERS	2.384049	48.912259	77947.21821
SAINT-MAUR-DES-FOSSES	2.485429	48.8029439	77159.94409
ANTIBES	7.125102	43.580418	76695.79283
CANNES	7.017369	43.552847	75282.68222
ROCHELLE	-1.151139	46.160329	75035.46593
CHAMPIGNY-SUR-MARNE	2.515556	48.817049	74823.01091
DUNKERQUE	2.3752019	51.03456	74436.86227
CALAIS	1.858686	50.95129	73568.66282
BEZIERS	3.215795	43.344233	72485.82205
AJACCIO	8.738635	41.919229	68707.79382
SAINT-NAZAIRE	-2.213848	47.2734979	67744.69239
BOURGES	2.398782	47.081012	67365.96258
DRANCY	2.445676	48.924298	67021.59059
COLMAR	7.358512	48.0793589	66965.86197
LEVALLOIS-PERRET	2.287864	48.893217	66452.33222
MERIGNAC	-0.656358	44.8448769	66384.97423
ISSY-LES-MOULINEAUX	2.2743419	48.8245306	66114.85451
VALENCE	4.89236	44.933393	64739.586
VILLENEUVE-D'ASCQ	3.145	50.6233	63920.53836
NOISY-LE-GRAND	2.55261	48.848579	63752.36333
QUIMPER	-4.097899	47.997542	63282.24031
TROYES	4.074735	48.2965919	61148.46228
NEUILLY-SUR-SEINE	2.26851	48.884831	61036.20335
ANTONY	2.302553	48.759255	60883.52514
SEYNE-SUR-MER	5.878219	43.102976	60611.39472
CLICHY	2.304768	48.904526	60492.59601
SARCELLES	2.378493	48.997347	59107.7171
VENISSIEUX	4.8844649	45.699594	58591.35623
IVRY-SUR-SEINE	2.38822	48.813055	58357.71894
NIORT	-0.464777	46.323716	57670.47251
PESSAC	-0.630386	44.80583	57448.084
LORIENT	-3.3702449	47.7482524	57344.90603
MONTAUBAN	1.35295	44.016079	57317.79369
CHAMBERY	5.917781	45.564601	56779.73504
VILLEJUIF	2.359279	48.792716	56192.50021
EPINAY-SUR-SEINE	2.314739	48.955735	56050.50685
SAINT-QUENTIN	3.2874	49.847066	55661.33512
BONDY	2.481875	48.906008	54655.37205
HYERES	6.128639	43.120541	54653.75184
CHOLET	-0.879787	47.059407	54598.11139
CHELLES	2.59016	48.877535	54472.39891
FONTENAY-SOUS-BOIS	2.475907	48.851542	54368.84456
BEAUVAIS	2.081875	49.42964	54030.27639
CERGY	2.060325	49.035617	53837.55661
GRASSE	6.926492	43.660153	53459.75625
ARLES	4.627502	43.676675	53382.04439
MAISONS-ALFORT	2.429443	48.801148	52860.67437
PANTIN	2.40963	48.894533	52765.58758
FREJUS	6.737034	43.433152	52536.6469
CLAMART	2.257289	48.799815	52482.26556
VANNES	-2.760847	47.658236	52355.66757
ROCHE-SUR-YON	-1.426442	46.670511	52333.39329
EVRY	2.441782	48.629828	52268.87228
NARBONNE	3.003078	43.184277	52201.981
BLANC-MESNIL	2.46436	48.941345	52040.19597
SARTROUVILLE	2.158431	48.941106	51707.68362
SEVRAN	2.538716	48.93897	51539.98425
LAVAL	-0.770138	48.077863	50845.36375
MONTROUGE	2.317384	48.816363	50460.22324
EVREUX	1.151361	49.0270129	50295.6701
BELFORT	6.863849	47.639674	50256.27792
ANNECY	6.129384	45.899247	50043.32537
BRIVE-LA-GAILLARDE	1.533937	45.159555	50005.46833
ALBI	2.146343	43.926896	49604.59322
VINCENNES	2.4394969	48.847759	49579.6636
CAGNES-SUR-MER	7.14882	43.663739	49450.35378
BOBIGNY	2.439712	48.908612	49229.2127
CHARLEVILLE-MEZIERES	4.726096	49.762085	49133.61763
MEAUX	2.879255	48.959396	48672.22433
CARCASSONNE	2.353663	43.212161	48407.51256
SAINT-OUEN	2.333764	48.911856	47966.29693
MARTIGUES	5.053728	43.404811	47716.08901
AUBAGNE	5.569336	43.29218	47161.94774
SURESNES	2.219033	48.869798	46846.00999
ALFORTVILLE	2.422317	48.80093	46774.91063
SAINT-MALO	-2.025674	48.649337	46509.08496
BASTIA	9.450881	42.697283	46400.32182
BAYONNE	-1.474841	43.492949	46230.02805
CHALONS-EN-CHAMPAGNE	4.363073	48.956682	46121.8252
SAINT-BRIEUC	-2.765835	48.51418	46035.90607
CHATEAUROUX	1.686779	46.811434	45517.23561
BLOIS	1.3362719	47.587952	45311.57202
MEUDON	2.23847	48.812995	45239.54868
PUTEAUX	2.23964	48.884748	44986.14724
CHALON-SUR-SAONE	4.853947	46.780764	44936.49357
TARBES	0.078082	43.232951	43763.72883
SETE	3.696624	43.40215	43622.17603
BOULOGNE-SUR-MER	1.613334	50.725231	43592.48815
ISTRES	4.987968	43.513006	43503.78776
SALON-DE-PROVENCE	5.097022	43.640199	43162.90631
SAINT-HERBLAIN	-1.651444	47.210335	43107.21247
CASTRES	2.241295	43.606214	42926.34633
VALENCIENNES	3.518332	50.357113	42894.91667
ANGOULEME	0.1562369	45.648377	42753.43153
ARRAS	2.777535	50.291002	42736.57546
MANTES-LA-JOLIE	1.714958	48.989323	42607.36755
SAINT-PRIEST	4.947071	45.698938	42476.77585
CORBEIL-ESSONNES	2.474805	48.6102599	42370.25011
LIVRY-GARGAN	2.536118	48.91923	42342.79355
DOUAI	3.080602	50.367874	42107.17937
SAINT-GERMAIN-EN-LAYE	2.093761	48.898908	41939.78125
VAULX-EN-VELIN	4.922661	45.782029	41909.04334
TALENCE	-0.588054	44.802614	41785.43806
WATTRELOS	3.215007	50.701174	41734.99594
ALES	4.083352	44.127204	41722.84153
MASSY	2.27137	48.730756	41581.71347
ROSNY-SOUS-BOIS	2.485932	48.875661	41463.10937
COMPIEGNE	2.826145	49.417816	41439.41838
GENNEVILLIERS	2.293275	48.925525	41194.69001
THIONVILLE	6.168426	49.357571	41189.81754
CANNET	7.01902	43.576551	41099.71722
CALUIRE-ET-CUIRE	4.842426	45.79681	40973.84824
GARGES-LES-GONESSE	2.400724	48.97178	39862.97947
CHOISY-LE-ROI	2.4088759	48.762541	39675.80402
BOURG-EN-BRESSE	5.219246	46.20279	39657.30155
MELUN	2.6554	48.542105	39584.46091
BAGNEUX	2.31002	48.796696	39469.86826
NOISY-LE-SEC	2.458625	48.892489	39443.27669
BRON	4.911927	45.733316	39337.22539
MARCQ-EN-BAROEUL	3.096267	50.670368	39108.77455
GAP	6.079758	44.559638	39099.74825
MONTLUCON	2.606645	46.3399659	39041.23691
CHERBOURG-OCTEVILLE	-1.625298	49.639093	38992.17525
GAGNY	2.536518	48.8849159	38625.96694
REZE	-1.569382	47.190616	38469.43547
ANGLET	-1.514699	43.481402	38422.94188
CHARTRES	1.489012	48.443854	38295.02705
POISSY	2.046982	48.929584	37932.2544
DRAGUIGNAN	6.464993	43.5377269	37813.40757
ECHIROLLES	5.718034	45.142151	37574.18055
COURNEUVE	2.398701	48.931422	37339.92359
THONON-LES-BAINS	6.477635	46.373565	37145.33818
SAVIGNY-SUR-ORGE	2.349282	48.6851259	36969.2083
AUXERRE	3.573781	47.798202	36690.07356
BETHUNE	2.63926	50.531036	36557.98975
NEVERS	3.162845	46.990896	36536.98495
JOUE-LES-TOURS	0.6613099	47.351861	36234.40707
CREIL	2.473346	49.261132	36232.04623
MONTELIMAR	4.749496	44.556944	36173.04716
ROANNE	4.072695	46.034432	36116.77072
LENS	2.83183	50.42893	36031.6443
VILLEPINTE	2.542867	48.960226	35709.54102
TREMBLAY-EN-FRANCE	2.557211	48.979952	35533.55687
SAINT-CHAMOND	4.5127119	45.476088	35463.42704
VITROLLES	5.249703	43.458598	35433.16713
HAGUENAU	7.79125	48.813288	35378.71291
SIX-FOURS-LES-PLAGES	5.839225	43.093062	35332.01066
SAINT-MARTIN-D'HERES	5.767761	45.165133	35220.49502
VILLEFRANCHE-SUR-SAONE	4.718821	45.991471	35218.8562
STAINS	2.384703	48.955387	35207.91281
SAINT-RAPHAEL	6.76837	43.42519	34942.66949
COLOMIERS	1.336579	43.612189	34807.90048
AGEN	0.616363	44.203142	34773.80685
CONFLANS-SAINTE-HONORINE	2.09178	49.000275	34578.3659
SAINTE-GENEVIEVE-DES-BOIS	2.326838	48.642943	34397.71439
MACON	4.828731	46.3068839	34341.59765
PONTAULT-COMBAULT	2.607598	48.801255	34230.85194
CIOTAT	5.605155	43.173653	34178.41298
BAGNOLET	2.4234589	48.870364	34073.56602
MARIGNANE	5.218332	43.4212739	34016.71537
FRANCONVILLE	2.229632	48.986011	33924.11633
ROMANS-SUR-ISERE	5.052735	45.044236	33850.40362
NEUILLY-SUR-MARNE	2.528373	48.856898	33340.84838
CHATILLON	2.289387	48.804689	33124.16089
CHATELLERAULT	0.548146	46.816487	33081.80687
PERREUX-SUR-MARNE	2.504038	48.841386	32544.72298
MUREAUX	1.912178	48.990181	32416.43767
DIEPPE	1.077483	49.922992	32351.39635
EPINAL	6.449403	48.172402	32240.9078
CHATENAY-MALABRY	2.270748	48.771896	32190.76989
MAUBEUGE	3.9674	50.280228	32181.75695
CAMBRAI	3.236633	50.173538	31870.71338
ANNEMASSE	6.234158	46.193253	31821.80054
MONTIGNY-LE-BRETONNEUX	2.031426	48.7664649	31782.43145
VIRY-CHATILLON	2.375902	48.666218	31725.63622
MALAKOFF	2.2977599	48.817275	31592.18999
LIEVIN	2.775222	50.417921	31563.20958
VILLENEUVE-SAINT-GEORGES	2.447488	48.7305769	31350.58903
NOGENT-SUR-MARNE	2.481699	48.837631	31337.90129
HOUILLES	2.18888	48.926916	31302.29676
SCHILTIGHEIM	7.748453	48.605226	31239.6994
GOUSSAINVILLE	2.471236	49.030467	31212.88126
DREUX	1.370889	48.736134	31020.44003
VANDOEUVRE-LES-NANCY	6.17376	48.661118	30827.63267
SAINT-LAURENT-DU-VAR	7.189811	43.673417	30817.91111
PALAISEAU	2.245748	48.714509	30645.45175
RILLIEUX-LA-PAPE	4.897126	45.819655	30643.17356
ATHIS-MONS	2.38479	48.7092979	30636.38487
MEYZIEU	5.003658	45.766821	30522.7287
CHATOU	2.160098	48.896391	30510.12947
MONT-DE-MARSAN	-0.499782	43.893485	30433.79786
PONTOISE	2.100645	49.050966	30307.82371
SAINT-CLOUD	2.208115	48.847647	30273.32624
PLAISIR	1.949075	48.817223	29938.3822
CARPENTRAS	5.048722	44.0555639	29922.83246
SOTTEVILLE-LES-ROUEN	1.095407	49.41725	29880.46015
ORANGE	4.807511	44.1380989	29795.28143
VALLAURIS	7.055041	43.577244	29788.87493
CLICHY-SOUS-BOIS	2.546147	48.910899	29760.48362
CHESNAY	2.130544	48.825415	29646.08542
THIAIS	2.387405	48.760344	29616.27162
VIENNE	4.874339	45.525587	29531.01814
TRAPPES	2.001844	48.776731	29505.47474
HAY-LES-ROSES	2.338084	48.7789659	29433.24333
YERRES	2.490967	48.712858	29424.22071
PERIGUEUX	0.7211149	45.184029	29114.29768
PIERREFITTE-SUR-SEINE	2.364077	48.967903	29070.42707
SAVIGNY-LE-TEMPLE	2.580987	48.59586	29019.76385
BOIS-COLOMBES	2.269675	48.917402	28856.18159
CHARENTON-LE-PONT	2.4158559	48.819918	28744.45351
GUYANCOURT	2.075323	48.762895	28592.03571
SOISSONS	3.32342	49.376636	28514.70983
VILLEMOMBLE	2.505069	48.886727	28476.72774
DRAVEIL	2.408154	48.685388	28295.24626
CACHAN	2.331433	48.791855	28232.11499
LAMBERSART	3.026676	50.652468	28222.61768
VILLENAVE-D'ORNON	-0.5672574	44.7799813	28141.6065
MENTON	7.49754	43.774481	28137.32604
BEZONS	2.215847	48.925687	28108.53876
BERGERAC	0.483392	44.853806	27952.50977
GRIGNY	2.385166	48.656473	27944.89138
ELANCOURT	1.960077	48.782907	27930.03126
AURILLAC	2.444997	44.930953	27924.70714
SAUMUR	-0.080893	47.260135	27855.12167
RIS-ORANGIS	2.410451	48.645663	27767.08787
SAINT-ETIENNE-DU-ROUVRAY	1.108209	49.380305	27642.68979
ILLKIRCH-GRAFFENSTADEN	7.711011	48.52854	27611.19981
VILLIERS-SUR-MARNE	2.546798	48.825787	27461.36944
VILLIERS-LE-BEL	2.387981	49.007379	27429.48843
SAINT-MEDARD-EN-JALLES	-0.7181	44.895295	27349.67185
AIX-LES-BAINS	5.908998	45.692341	27285.05604
GARENNE-COLOMBES	2.244085	48.906535	27265.70517
ALENCON	0.091266	48.432856	27257.08184
ERMONT	2.258451	48.989071	27097.28797
VIGNEUX-SUR-SEINE	2.416924	48.700094	26944.75615
VIERZON	2.069791	47.221438	26914.61873
GONESSE	2.460589	48.984332	26911.95661
HERBLAY	2.165493	48.990006	26714.38934
MIRAMAS	5.002136	43.588896	26638.24657
VANVES	2.288405	48.822484	26558.7709
SAINTES	-0.633389	45.744175	26468.68442
MONTBELIARD	6.798466	47.510356	26450.25296
ROMAINVILLE	2.435048	48.886112	26447.85552
PLESSIS-ROBINSON	2.266257	48.780426	26320.56477
BRUNOY	2.504543	48.698071	26288.94581
SUCY-EN-BRIE	2.520598	48.768866	26275.40133
RAMBOUILLET	1.829079	48.643868	26181.66066
TAVERNY	2.223507	49.027441	26155.06637
LAON	3.61989	49.564133	26097.22093
KREMLIN-BICETRE	2.356972	48.810108	26040.83134
GARDE	6.017199	43.128777	26039.91528
HENIN-BEAUMONT	2.94728	50.420087	25960.58905
GRAND-QUEVILLY	1.041384	49.411811	25891.46824
SANNOIS	2.256869	48.970782	25858.20126
SENS	3.28268	48.20065	25854.12763
OULLINS	4.80066	45.711926	25780.51348
VILLENEUVE-LA-GARENNE	2.324789	48.936616	25739.01005
BOURGOIN-JALLIEU	5.27212	45.597108	25547.66153
BEGLES	-0.543784	44.812023	25526.79431
DECINES-CHARPIEU	4.957024	45.7674499	25471.16676
ULIS	2.16647	48.6792779	25416.24222
ROCHEFORT	-0.961697	45.936698	25382.64062
VICHY	3.425488	46.131859	25182.29851
SAINT-DIZIER	4.947418	48.637692	25156.85342
VERNON	1.488107	49.091958	25085.47914
DOLE	5.49081	47.09534	25024.19589
ORVAULT	-1.619405	47.274344	24987.08767
FRESNES	2.326243	48.757205	24954.29937
TOURNEFEUILLE	1.346834	43.5829	24935.56667
MONTFERMEIL	2.570773	48.902029	24835.8027
LUNEL	4.135366	43.67445	24778.25218
CAVAILLON	5.037909	43.837051	24756.16626
ARMENTIERES	2.884218	50.691652	24751.06446
TESTE-DE-BUCH	-1.148224	44.631077	24735.34413
RODEZ	2.575986	44.349389	24513.15717
LIBOURNE	-0.243985	44.912998	24507.17188
BUSSY-SAINT-GEORGES	2.69802	48.842205	24502.08722
CHAMPS-SUR-MARNE	2.602651	48.852775	24411.4454
VILLEPARISIS	2.614385	48.938315	24403.46792
SAINT-OUEN-L'AUMONE	2.105287	49.04313	24233.07381
ABBEVILLE	1.836833	50.105467	24160.2285
BIARRITZ	-1.558626	43.4831519	24088.45116
EPERNAY	3.956242	49.043411	24009.72687
FRONTIGNAN	3.755999	43.444815	23965.97198
FONTENAY-AUX-ROSES	2.287181	48.789776	23912.9965
VILLENEUVE-SUR-LOT	0.703561	44.407126	23888.84016
EAUBONNE	2.2779189	48.992128	23872.43961
GRADIGNAN	-0.618945	44.774267	23859.55878
MURET	1.33071	43.461574	23804.70103
SAINT-SEBASTIEN-SUR-LOIRE	-1.503103	47.205376	23686.22023
BRUAY-LA-BUISSIERE	2.543206	50.483113	23637.94585
BOUSCAT	-0.59944	44.865164	23361.18678
CHAUMONT	5.1392559	48.113748	23290.4545
SAINT-MANDE	2.4178639	48.842832	23204.67767
AGDE	3.47083	43.312455	23157.81167
LILAS	2.419452	48.881935	23058.97614
CENON	-0.530906	44.857738	22990.41936
MONTGERON	2.4604529	48.703859	22990.24377
MANOSQUE	5.790916	43.835744	22947.35999
MAISONS-LAFFITTE	2.1423899	48.947545	22905.99814
ROISSY-EN-BRIE	2.654541	48.790685	22791.10474
SEVRES	2.2154219	48.82427	22790.06825
CREUSOT	4.4278	46.805351	22724.87786
CORMEILLES-EN-PARISIS	2.201292	48.973526	22643.0116
LANESTER	-3.347354	47.763494	22600.56035
BRETIGNY-SUR-ORGE	2.30604	48.611486	22578.91968
MANDELIEU-LA-NAPOULE	6.938309	43.546232	22551.06447
OYONNAX	5.655335	46.257773	22515.22837
SAINTE-FOY-LES-LYON	4.804827	45.735237	22409.00941
MADELEINE	3.073511	50.654836	22353.15656
BEAUNE	4.840004	47.02603	22331.21164
MONS-EN-BAROEUL	3.107673	50.642006	22221.6387
MILLAU	3.077801	44.100575	22220.33094
COUDEKERQUE-BRANCHE	2.397046	51.015681	22190.20881
MONTIGNY-LES-METZ	6.147807	49.099068	22124.50407
ETAMPES	2.16142	48.434416	21979.44013
LISIEUX	0.227849	49.145922	21971.68064
FORBACH	6.895295	49.186515	21919.78704
TORCY	2.654472	48.850572	21878.80406
AUCH	0.586709	43.64638	21856.83978
PETIT-QUEVILLY	1.054325	49.429895	21792.4626
MORSANG-SUR-ORGE	2.345709	48.661766	21750.66999
MONTMORENCY	2.321878	48.989778	21695.13243
SARREGUEMINES	7.070862	49.106031	21668.0193
DEUIL-LA-BARRE	2.3272339	48.975751	21664.45055
BLAGNAC	1.39703	43.635087	21622.15092
HEROUVILLE-SAINT-CLAIR	-0.333655	49.20358	21614.1769
LOOS	3.017729	50.615139	21578.42839
HAZEBROUCK	2.542555	50.72748	21550.44666
FLEURY-LES-AUBRAIS	1.920754	47.931513	21543.17183
LONGJUMEAU	2.305675	48.692252	21490.71658
FONTAINE	5.688211	45.192754	21463.34944
PAVILLONS-SOUS-BOIS	2.504403	48.90852	21416.03727
BOIS-GUILLAUME - BIHOREL	1.1279514	49.4636803	21397.75769
SAINT-DIE-DES-VOSGES	6.947767	48.2874679	21339.89781
VALETTE-DU-VAR	5.983561	43.1378709	21313.77564
VERTOU	-1.473378	47.168194	21296.17357
ORLY	2.401373	48.745193	21279.54059
DAX	-1.051945	43.708608	21079.52906
GARDANNE	5.470649	43.455669	21005.45843
GIF-SUR-YVETTE	2.134078	48.701844	20989.2298
SAINT-GRATIEN	2.286571	48.970259	20958.7121
GRANDE-SYNTHE	2.302577	51.013547	20932.21576
CROIX	3.148719	50.67732	20919.6469
COMBS-LA-VILLE	2.55769	48.66602	20812.62946
CELLE-SAINT-CLOUD	2.132504	48.849766	20616.89309
NEUILLY-PLAISANCE	2.509142	48.865205	20609.09987
LAGNY-SUR-MARNE	2.713016	48.87296	20538.10323
VOIRON	5.591349	45.362713	20446.56476
MOUGINS	7.006491	43.6023319	20359.22307
BOURG-LA-REINE	2.316374	48.780454	20276.05031
ARCUEIL	2.334955	48.80486	20262.17635
HALLUIN	3.127845	50.782824	20105.22552
VELIZY-VILLACOUBLAY	2.190408	48.787899	20079.8844
BRESSUIRE	-0.492866	46.84246	20068.72397
LANNION	-3.459144	48.732084	20051.36147
LUNEVILLE	6.492339	48.592237	19968.04113
DENAIN	3.397325	50.328225	19939.84173
CAHORS	1.441989	44.4475229	19920.98551
MONTCEAU-LES-MINES	4.362979	46.67413	19886.8712
SAINT-MICHEL-SUR-ORGE	2.312884	48.63264	19874.53086
SAINT-GENIS-LAVAL	4.792768	45.691999	19869.50735
LORMONT	-0.523108	44.880163	19867.12078
DAMMARIE-LES-LYS	2.634831	48.515451	19857.85852
PENNES-MIRABEAU	5.308922	43.410272	19840.76349
SELESTAT	7.454241	48.259386	19814.7638
MEE-SUR-SEINE	2.632122	48.534031	19789.07448
OLIVET	1.897565	47.865408	19769.58009
SAINT-LOUIS	7.563934	47.5859949	19731.06967
VENCE	7.113784	43.722566	19692.4984
GIVORS	4.772829	45.58329	19685.94804
FOUGERES	-1.204626	48.3515609	19670.16437
ACHERES	2.0700219	48.960796	19626.55838
CONCARNEAU	-3.920734	47.872834	19620.93243
MOULINS	3.334417	46.568059	19613.79931
OZOIR-LA-FERRIERE	2.671739	48.763827	19530.60275
TASSIN-LA-DEMI-LUNE	4.776921	45.761337	19482.3104
ANNECY-LE-VIEUX	6.1419499	45.9192139	19469.09349
MONT-SAINT-AIGNAN	1.079798	49.459778	19429.03187
COURNON-D'AUVERGNE	3.198177	45.741532	19409.90697
LIMEIL-BREVANNES	2.492154	48.7461849	19300.833
MONTIGNY-LES-CORMEILLES	2.187929	48.987412	19276.32014
SCEAUX	2.295092	48.778016	19251.75837
NOGENT-SUR-OISE	2.464688	49.278948	19228.18586
ISLE-SUR-LA-SORGUE	5.057106	43.91419	19067.43715
SAINT-LO	-1.091398	49.116038	19049.64526
SEDAN	4.93863	49.70349	19049.00012
PLESSIS-TREVISE	2.573903	48.808589	18964.01186
WASQUEHAL	3.130782	50.669276	18950.18014
EYSINES	-0.648815	44.885793	18924.44757
MAUREPAS	1.945326	48.7623589	18922.40709
ALBERTVILLE	6.392726	45.675535	18917.10989
CHALLANS	-1.880412	46.844828	18907.76624
SAINT-JEAN-DE-BRAYE	1.970843	47.912048	18884.02696
MARMANDE	0.159869	44.500484	18859.11994
FECAMP	0.380774	49.755601	18823.08258
ROYAN	-1.043182	45.623027	18816.70069
GUJAN-MESTRAS	-1.071189	44.635731	18815.71728
CHILLY-MAZARIN	2.310271	48.705134	18806.67184
COGNAC	-0.328744	45.691046	18765.60306
CHEVILLY-LARUE	2.350648	48.767811	18749.36842
VILLEFONTAINE	5.150093	45.613538	18723.24991
VILLENEUVE-LE-ROI	2.407557	48.732026	18686.57104
VERDUN	5.386757	49.15894	18662.55236
PERTUIS	5.501843	43.694275	18613.32983
RONCHIN	3.078683	50.605934	18601.61714
SORGUES	4.872757	44.008767	18597.49873
PUY-EN-VELAY	3.882936	45.042768	18523.66325
MANTES-LA-VILLE	1.713371	48.978154	18501.6113
CHAVILLE	2.192418	48.808026	18491.99457
PONTARLIER	6.354242	46.9041039	18481.62208
SEYNOD	6.10217	45.888892	18353.0482
BAGNOLS-SUR-CEZE	4.620075	44.16252	18337.93547
COUERON	-1.72885	47.210999	18334.8477
GARCHES	2.188703	48.846066	18317.65506
MITRY-MORY	2.619156	48.98543	18309.72501
ALLAUCH	5.4825739	43.336148	18270.6222
BOURG-LES-VALENCE	4.894633	44.947037	18238.71458
BISCHHEIM	7.751991	48.614813	18150.96009
LOUVIERS	1.168657	49.214805	18133.75308
CARQUEFOU	-1.486812	47.296241	18131.15102
SAINT-CYR-L'ECOLE	2.0657	48.806421	18118.53769
ERAGNY	2.094985	49.02458	18016.92914
ECULLY	4.77867	45.774657	17973.82842
LONS-LE-SAUNIER	5.550796	46.671361	17954.04606
PLOEMEUR	-3.42714	47.735695	17848.467
PRE-SAINT-GERVAIS	2.40557	48.885063	17761.36043
GENTILLY	2.344688	48.8138999	17756.43765
CLAYES-SOUS-BOIS	1.976374	48.82342	17743.84611
RIOM	3.114932	45.8939949	17724.13252
CHENNEVIERES-SUR-MARNE	2.53507	48.796124	17722.08729
BOUGUENAIS	-1.619656	47.176385	17702.87783
PORT-DE-BOUC	4.985931	43.405449	17565.17756
CLUSES	6.580582	46.06039	17532.29914
CHAPELLE-SUR-ERDRE	-1.550638	47.299576	17523.67429
DIGNE-LES-BAINS	6.235976	44.092193	17514.5025
JOINVILLE-LE-PONT	2.472043	48.821267	17503.00078
AVION	2.824277	50.412326	17500.73396
SOISY-SOUS-MONTMORENCY	2.299731	48.988506	17350.14221
PONTET	4.863831	43.9591489	17341.24766
ELBEUF	1.00691	49.292163	17233.4106
FIRMINY	4.287617	45.387638	17150.06454
CARVIN	2.958107	50.491515	17124.09909
BRIGNOLES	6.061187	43.40655	17081.02072
FACHES-THUMESNIL	3.06953	50.602642	17040.06266
HEM	3.18881	50.654867	17020.143
